global:
  cache_dir: .cache
optimization:
  alpha_std_penalty: 0.5
  beta_penalty: 2.0
  checkpoint_interval: 5
  default_jeep_weight: 1.0
  g_max: 6
  gamma_crossover: 0.5
  initial_tau: 1.0
  k_tournament: 3
  n_elite: 2
  n_population: 6
  n_stagnation: 8
  output_root: outputs/toy_runs
  p_ls_attraction: 0.4
  p_ls_pruning: 0.6
  p_ls_repulsion: 0.4
  p_mutation: 0.25
  q: 1000.0
  rho: 0.15
  telemetry_interval: 2
simulation:
  jeep_capacity: 16
  jeep_speed_kmh: 20.0
  mohring_sample_size: 100
  num_routes: 5
  num_ticks: 1800
  passenger_speed_kmh: 4.5
  seconds_per_tick: 30
  spawn_rate_per_hour: 120.0
  spawn_stdev: 10.0
  total_allocatable_jeeps: 20
  weight_tolerance: 50.0
toy_city:
  grid_size: 50
  origin_lat: 8.2
  origin_lon: 124.2
  step_deg: 0.001
toy_ddm:
  hotspots:
  - lat: 8.225
    lon: 124.22
    name: Downtown Public Market
    weight: 15.0
  - lat: 8.235
    lon: 124.225
    name: University Belt
    weight: 12.0
  - lat: 8.245
    lon: 124.23
    name: North Regional Terminal
    weight: 10.0
  - lat: 8.205
    lon: 124.215
    name: South City Terminal
    weight: 10.0
  - lat: 8.22
    lon: 124.235
    name: Mega Mall Complex
    weight: 9.0
  - lat: 8.23
    lon: 124.21
    name: BPO / Tech Park
    weight: 8.0
  - lat: 8.235
    lon: 124.215
    name: City General Hospital
    weight: 7.0
  - lat: 8.21
    lon: 124.24
    name: Heavy Industrial Zone
    weight: 6.0
  - lat: 8.225
    lon: 124.245
    name: Suburban Residential (East)
    weight: 3.0
  - lat: 8.245
    lon: 124.245
    name: Suburban Residential (Northeast)
    weight: 2.0
  - lat: 8.205
    lon: 124.205
    name: Suburban Residential (Southwest)
    weight: 2.5
  idw_power: 2.0
travel_graph:
  alight_wt: 0.0
  direct_wt: 0.0
  ride_wt: 0.0071
  transfer_wt: 14.2
  wait_wt: 8.5
  walk_wt: 0.0142
